City,Cloudiness,Country,Date,Humidity,Lat,Lng,Max Temp,Wind Speed
ostrogozhsk,92,ru,1551418911,95,50.86,39.08,33.52,12.01
alofi,12,nu,1551416400,79,-19.06,-169.92,84.2,9.17
aleksandrov gay,80,ru,1551418911,95,50.14,48.57,29.38,15.48
leningradskiy,44,ru,1551418386,83,69.38,178.42,9.13,12.24
butaritari,92,ki,1551418371,100,3.07,172.79,81.98,19.51
qaanaaq,0,gl,1551418380,85,77.48,-69.36,-14.64,8.21
georgetown,0,sh,1551416400,94,6.8,-58.16,69.8,4.7
carnarvon,0,au,1551418379,55,-30.97,22.13,58.63,2.95
dikson,0,ru,1551418399,74,73.51,80.55,-0.19,16.26
talnakh,64,ru,1551418399,72,69.49,88.39,5.48,19.28
manakara,36,mg,1551418912,89,-22.14,48.01,82.66,8.32
khatanga,24,ru,1551418385,58,71.98,102.47,-12.52,6.42
darbhanga,0,in,1551418912,100,26.16,85.9,65.11,4.74
barrow,36,us,1551418912,64,-38.31,-60.23,59.44,13.47
inhambane,40,mz,1551416400,78,-23.87,35.38,82.4,6.2
tiksi,64,ru,1551418359,58,71.64,128.87,1.88,12.12
amga,32,ru,1551418913,65,60.89,131.98,9.98,3.74
muros,90,es,1551418352,100,42.77,-9.06,51.01,2.24
pahrump,1,us,1551418846,43,36.21,-115.98,59.0,4.63
san juan,20,us,1551418857,83,18.47,-66.12,75.2,12.35
abu dhabi,20,ae,1551416400,69,24.47,54.37,75.2,16.11
riyadh,0,sa,1551416400,21,24.63,46.72,60.8,4.7
hithadhoo,8,mv,1551418359,100,-0.6,73.08,82.79,12.35
tura,24,ru,1551418384,79,25.52,90.21,64.79,5.97
kapaa,75,us,1551418216,60,22.08,-159.32,69.8,13.87
san jeronimo,92,mx,1551418915,98,-13.65,-73.37,44.36,2.17
vaini,0,to,1551416400,21,15.34,74.49,82.4,6.93
hermanus,88,za,1551418236,97,-34.42,19.24,64.0,1.01
vilhena,92,br,1551418671,97,-12.74,-60.15,68.84,1.72
mandalgovi,0,mn,1551418674,62,45.76,106.27,36.67,13.13
rikitea,92,pf,1551418361,100,-23.12,-134.97,76.54,9.1
sur,0,om,1551418389,92,22.57,59.53,73.39,19.84
punta arenas,90,cl,1551418393,93,-53.16,-70.91,50.0,4.29
longyearbyen,20,sj,1551415800,76,78.22,15.63,-4.01,8.05
tuktoyaktuk,20,ca,1551416400,70,69.44,-133.03,-4.01,17.22
kayerkan,56,ru,1551418916,66,69.35,87.76,2.24,22.3
mataura,0,pf,1551418210,75,-46.19,168.86,59.0,14.0
geraldton,20,au,1551416400,84,49.72,-86.95,5.0,3.36
zhangye,36,cn,1551418916,84,38.94,100.46,36.53,4.29
port alfred,8,za,1551418232,95,-33.59,26.89,66.99,4.0
tahoua,88,ne,1551418917,34,14.89,5.26,63.67,10.78
bandarbeyla,88,so,1551418503,100,9.49,50.81,74.92,3.4
mori,20,jp,1551418684,76,34.86,137.94,64.0,10.29
belaya gora,0,ru,1551418661,71,68.54,146.19,-16.26,2.84
pevek,88,ru,1551418374,85,69.7,170.27,2.47,21.07
sao jose da coroa grande,76,br,1551418917,97,-8.9,-35.15,76.58,2.28
savannah bight,68,hn,1551418918,100,16.45,-85.85,77.62,15.93
umm lajj,92,sa,1551418421,93,25.02,37.27,64.75,19.39
sri aman,75,my,1551416400,66,1.24,111.46,86.0,3.36
saskylakh,0,ru,1551418290,28,71.97,114.09,-19.72,3.06
kolosovka,48,ru,1551418918,79,56.47,73.61,8.23,11.01
jamestown,0,sh,1551418367,36,-33.21,138.6,92.33,5.19
luderitz,0,na,1551418474,82,-26.65,15.16,60.7,13.69
narsaq,0,gl,1551415800,44,60.91,-46.05,37.4,28.86
hobart,20,au,1551418096,54,-42.88,147.33,84.99,12.75
whitehorse,40,ca,1551418372,66,60.72,-135.06,21.0,6.93
vardo,90,no,1551418144,55,39.62,-77.74,37.4,8.05
cherskiy,36,ru,1551418400,65,68.75,161.3,-8.92,7.99
east london,20,za,1551416400,68,-33.02,27.91,69.8,8.05
nakhon thai,20,th,1551416400,49,17.1,100.84,89.6,4.7
alihe,0,cn,1551418919,46,50.57,123.73,34.87,5.19
lata,20,sb,1551418919,66,30.78,78.62,45.76,1.39
hasaki,75,jp,1551417577,54,35.73,140.83,55.99,3.36
saint-philippe,40,re,1551418270,71,45.36,-73.48,5.0,5.82
wattegama,0,lk,1551418920,71,7.35,80.68,85.63,4.18
ribeira grande,88,pt,1551418374,93,38.52,-28.7,61.87,15.37
bom jardim,92,br,1551418921,93,-7.8,-35.59,73.88,1.61
yekaterinoslavka,36,ru,1551418921,77,54.34,72.46,10.75,7.09
batangafo,92,cf,1551418921,58,7.3,18.29,78.43,5.53
ushuaia,75,ar,1551416400,93,-54.81,-68.31,44.6,5.82
zhezkazgan,75,kz,1551416400,92,47.8,67.71,5.0,2.24
aykhal,36,ru,1551418921,69,65.95,111.51,11.92,3.96
mason city,90,us,1551418744,85,43.15,-93.2,17.6,5.82
bluff,8,nz,1551418363,36,-23.58,149.07,86.98,12.35
roebourne,24,au,1551418715,26,-20.77,117.15,101.2,14.7
tasiilaq,92,gl,1551415800,68,65.61,-37.64,26.6,40.26
nikolskoye,75,ru,1551418834,79,59.7,30.79,21.99,8.95
maragogi,76,br,1551418185,97,-9.01,-35.22,76.58,2.28
changchun,0,cn,1551416400,14,43.88,125.32,48.2,8.95
takoradi,48,gh,1551418923,100,4.89,-1.75,80.36,3.4
turbat,64,pk,1551418923,61,26.0,63.05,73.21,10.0
mahebourg,40,mu,1551418140,74,-20.41,57.7,86.0,12.75
panguna,92,pg,1551418923,92,-6.32,155.48,78.97,0.6
tandlianwala,100,pk,1551418923,80,31.03,73.13,61.69,5.3
codrington,92,ag,1551417974,44,-28.95,153.24,80.6,10.29
bambous virieux,40,mu,1551418140,74,-20.34,57.76,86.0,12.75
mount gambier,0,au,1551416400,11,-37.83,140.78,104.0,18.34
cidreira,0,br,1551418360,97,-30.17,-50.22,63.31,5.86
folldal,44,no,1551418924,84,62.14,10.0,21.28,6.98
vikindu,75,tz,1551416400,94,-6.98,39.3,80.6,3.62
albany,90,au,1551418883,72,42.65,-73.75,18.0,2.28
atuona,8,pf,1551418361,100,-9.8,-139.03,81.08,9.44
svetlogorsk,75,ru,1551416400,92,53.14,59.15,21.2,15.66
ingham,76,au,1551418925,100,-18.65,146.16,77.39,13.02
manbij,0,sy,1551417600,41,36.53,37.96,39.2,10.67
zilupe,68,lv,1551418925,75,56.39,28.12,20.24,20.07
sjovegan,90,no,1551418292,79,68.87,17.85,28.0,25.28
sabla,64,bg,1551418926,60,12.75,4.71,66.46,1.05
port elizabeth,90,za,1551418422,68,39.31,-74.98,36.0,5.82
beringovskiy,24,ru,1551418431,89,63.05,179.32,29.74,24.54
sirsa,32,in,1551418926,77,29.54,75.04,66.28,4.74
bang len,40,th,1551418828,56,14.02,100.17,100.99,6.93
laguna,0,br,1551418383,67,27.52,-110.01,58.99,2.73
batagay,20,ru,1551418375,75,67.65,134.64,-17.88,3.74
manokwari,8,id,1551418324,98,-0.87,134.08,81.67,6.76
moranbah,8,au,1551418927,38,-22.0,148.04,85.81,16.71
koumac,20,nc,1551418927,88,-20.56,164.28,78.74,10.0
busselton,0,au,1551418809,23,-33.64,115.35,73.99,15.82
gorele,75,tr,1551417600,48,41.03,39.0,42.8,5.82
faanui,64,pf,1551418365,100,-16.48,-151.75,83.29,12.24
khor,68,ru,1551418928,32,47.88,134.96,35.5,9.44
kodiak,1,us,1551418410,73,39.95,-94.76,21.2,5.82
bredasdorp,100,za,1551418236,88,-34.53,20.04,66.2,3.36
upernavik,24,gl,1551418250,100,72.79,-56.15,0.26,10.45
klaksvik,88,fo,1551415800,93,62.23,-6.59,39.2,8.05
haines junction,32,ca,1551418928,68,60.75,-137.51,-0.51,0.83
balkhash,75,kz,1551416400,92,46.84,74.98,26.6,7.2
lavrentiya,92,ru,1551418929,92,65.58,-170.99,32.48,34.61
cockburn town,48,tc,1551418372,98,21.46,-71.14,77.48,16.49
bethel,90,us,1551416160,80,60.79,-161.76,37.4,13.87
airai,80,pw,1551418929,95,-8.93,125.41,73.88,0.49
irara,68,br,1551418929,99,-8.52,127.01,82.84,0.94
hilo,75,us,1551418112,77,19.71,-155.08,66.99,12.75
victoria,75,sc,1551416400,66,5.28,115.24,87.8,6.93
tuatapere,8,nz,1551418210,75,-46.13,167.69,59.0,14.0
alice springs,0,au,1551416400,13,-23.7,133.88,100.4,8.05
chuy,0,uy,1551418404,87,-33.69,-53.46,65.02,3.96
yellowknife,5,ca,1551418249,61,62.45,-114.38,-22.01,12.75
nsanje,12,mw,1551418930,78,-16.92,35.26,78.97,5.41
pa sang,0,th,1551418117,29,18.53,98.94,97.0,5.82
salalah,40,om,1551415800,69,17.01,54.1,78.8,6.93
dwarka,0,in,1551416407,63,28.58,77.04,68.0,6.93
buala,32,sb,1551418931,91,-8.15,159.59,83.69,3.18
chokurdakh,0,ru,1551418409,27,70.62,147.9,-18.6,2.95
khani,75,ru,1551416400,93,41.96,42.96,35.6,4.7
el alto,75,pe,1551416400,93,-16.5,-68.19,42.8,6.93
innisfail,75,au,1551418816,66,52.02,-113.95,15.01,13.87
balabac,0,ph,1551418932,95,7.99,117.06,81.53,15.14
borodino,76,ru,1551418932,92,55.9,94.89,35.5,7.43
misratah,0,ly,1551418449,100,32.38,15.09,45.4,5.53
dinguiraye,0,gn,1551418933,39,11.29,-10.71,51.52,6.08
basudebpur,0,in,1551418933,100,21.14,86.74,72.76,16.04
tiznit,36,ma,1551418839,95,29.7,-9.73,48.82,2.17
gamba,0,ga,1551418933,88,28.28,88.52,8.95,4.97
adrar,0,dz,1551416400,41,27.87,-0.29,41.0,5.82
goure,48,ne,1551418934,59,13.98,10.27,71.09,2.73
la ronge,90,ca,1551416400,83,55.1,-105.3,-4.01,6.93
kamiiso,20,jp,1551416400,48,41.82,140.65,44.6,16.11
sistranda,40,no,1551418836,59,63.73,8.83,37.4,17.22
torbay,75,ca,1551418356,67,47.66,-52.73,19.0,26.4
pastavy,48,by,1551418935,68,55.11,26.84,22.63,19.73
hun,75,ly,1551418496,93,50.34,4.87,46.99,10.29
bereda,90,so,1551418809,93,43.27,-7.54,52.0,5.82
xudat,0,az,1551418936,99,41.63,48.68,34.51,3.62
menongue,8,ao,1551418419,91,-14.66,17.68,63.76,3.4
sobolevo,92,ru,1551418474,88,54.43,31.9,27.44,21.85
touros,20,br,1551416400,94,-5.2,-35.46,77.0,2.24
mokrousovo,88,ru,1551418936,84,55.81,66.77,17.81,14.03
new norfolk,20,au,1551418155,54,-42.78,147.06,84.99,12.75
severo-kurilsk,24,ru,1551418370,100,50.68,156.12,27.31,2.51
karakol,8,kg,1551418937,75,42.49,78.39,28.48,1.95
dalby,100,au,1551418823,42,-27.18,151.26,86.0,20.8
husavik,0,is,1551418492,83,50.56,-96.99,-3.0,3.62
iqaluit,75,ca,1551417773,70,63.75,-68.52,-2.01,24.16
hamilton,40,bm,1551418220,88,32.3,-64.78,66.2,17.22
kawhia,0,nz,1551418778,53,-38.07,174.82,71.01,13.0
kavieng,32,pg,1551418396,100,-2.57,150.8,83.56,2.28
tongchuan,80,cn,1551416400,50,34.9,108.95,51.8,13.42
dingle,0,ie,1551418450,42,11.0,122.67,90.71,14.25
zhigansk,80,ru,1551418459,62,66.77,123.37,0.76,4.63
manaus,20,br,1551416400,94,-3.13,-59.98,75.2,3.36
ajdabiya,0,ly,1551418938,79,30.75,20.22,39.55,3.74
chapais,90,ca,1551416400,84,49.78,-74.86,3.2,2.24
tongren,92,cn,1551418939,100,27.72,109.18,44.54,4.29
dzerzhinsk,90,by,1551418269,92,56.24,43.46,30.99,2.24
pleshanovo,75,ru,1551416400,67,57.46,28.17,23.0,13.42
kirakira,12,sb,1551418465,100,-10.46,161.92,83.56,3.62
riga,40,lv,1551418817,79,56.95,24.11,28.4,13.87
mogadishu,20,so,1551416400,69,2.04,45.34,80.6,9.17
cabo san lucas,5,mx,1551418278,49,22.89,-109.91,71.01,4.7
yulara,0,au,1551416400,9,-25.24,130.99,105.8,12.75
mundgod,0,in,1551416400,21,14.97,75.04,82.4,6.93
nguruka,64,tz,1551418940,98,-5.11,31.04,67.0,3.74
port blair,20,in,1551416400,66,11.67,92.75,86.0,12.75
souillac,75,mu,1551418389,100,45.6,-0.6,52.0,3.36
port moresby,40,pg,1551412800,62,-9.47,147.16,89.6,17.22
ust-nera,0,ru,1551418941,75,64.57,143.24,-19.81,2.06
pokhara,0,np,1551418933,55,28.21,83.99,54.4,2.73
fort-shevchenko,56,kz,1551418941,98,44.51,50.26,38.56,3.96
ashford,64,gb,1551418660,100,51.15,0.87,48.0,6.93
waraseoni,0,in,1551418941,34,21.76,80.05,78.97,9.55
grindavik,90,is,1551417854,93,63.84,-22.43,45.0,28.86
fort nelson,40,ca,1551416400,64,58.81,-122.69,1.4,6.93
lorengau,8,pg,1551418301,97,-2.02,147.27,84.1,7.87
meylan,90,fr,1551418804,81,45.21,5.78,46.99,2.24
port hardy,5,ca,1551416400,89,50.7,-127.42,32.0,4.7
yar-sale,64,ru,1551418462,84,66.83,70.83,6.88,12.57
te anau,0,nz,1551418314,43,-45.41,167.72,62.99,3.96
puerto carreno,76,co,1551418499,93,6.19,-67.49,67.94,4.63
acajutla,20,sv,1551418268,82,13.59,-89.83,72.0,3.62
komsomolskiy,64,ru,1551418363,87,67.55,63.78,1.12,13.8
viseu,20,br,1551418555,100,40.66,-7.91,51.01,1.12
tilichiki,0,ru,1551418430,70,60.47,166.1,-2.62,3.96
cape town,75,za,1551418375,93,-33.93,18.42,66.0,10.29
businga,92,cd,1551418943,99,3.34,20.89,68.98,1.16
puerto ayora,0,ec,1551418409,100,-0.74,-90.35,80.86,2.73
pucallpa,75,pe,1551416400,94,-8.38,-74.54,77.0,3.36
avarua,92,ck,1551416400,78,-21.21,-159.78,82.4,8.05
savantvadi,0,in,1551416400,57,15.9,73.82,80.6,9.17
kariba,0,zw,1551418944,64,-16.53,28.78,78.29,3.85
aksarka,76,ru,1551418491,88,66.56,67.8,1.39,6.98
pala,0,td,1551416400,55,9.71,76.68,87.8,9.17
skagen,64,dk,1551418805,86,58.6,13.44,33.8,9.66
kloulklubed,75,pw,1551415800,62,7.04,134.26,86.0,9.17
saint-joseph,75,re,1551418082,93,43.56,6.97,53.6,4.7
nata,40,bw,1551416400,81,34.78,32.57,42.8,6.93
kargil,36,in,1551418945,75,34.56,76.13,-3.16,1.72
spearfish,90,us,1551418594,92,44.49,-103.86,19.99,5.82
petropavlovsk-kamchatskiy,36,ru,1551416400,42,53.05,158.65,26.6,13.42
vao,68,nc,1551418320,68,59.1,26.19,20.29,11.56
chumikan,12,ru,1551418487,49,54.72,135.31,21.23,7.43
kaspiyskiy,88,ru,1551418946,89,45.39,47.37,34.78,12.01
vaitape,48,pf,1551418764,99,-16.52,-151.75,83.24,12.12
kahului,75,us,1551418428,64,20.89,-156.47,69.8,16.11
srirampur,0,in,1551416400,57,23.92,90.13,75.2,4.7
clyde river,1,ca,1551416580,76,70.47,-68.59,-4.01,32.21
cabra,0,ph,1551418693,86,37.47,-4.43,50.0,2.17
seoul,1,kr,1551418200,22,37.57,126.98,57.2,2.24
szentlorinc,0,hu,1551418947,76,46.04,17.99,34.96,3.4
kaitangata,0,nz,1551418377,65,-46.28,169.85,59.8,20.07
salym,88,ru,1551418948,75,60.06,71.48,19.39,10.11
lagoa,0,pt,1551418357,81,37.14,-8.45,52.0,5.82
ambon,0,id,1551418945,87,47.55,-2.56,50.0,9.17
qandala,0,so,1551418949,40,11.47,49.87,83.74,1.83
bonavista,68,ca,1551418218,73,48.65,-53.11,17.01,14.0
celestun,0,mx,1551418500,89,20.87,-90.4,80.23,19.06
walvis bay,0,na,1551416528,77,-22.95,14.51,66.0,9.17
hobyo,8,so,1551418323,80,5.35,48.53,78.88,8.43
vila do maio,0,cv,1551416400,52,15.13,-23.22,68.0,16.11
calmar,75,ca,1551418824,65,53.27,-113.81,3.99,12.75
mazatlan,5,mx,1551418339,93,23.22,-106.42,69.01,1.95
broome,44,au,1551418423,93,52.47,1.45,44.01,4.7
san cristobal,90,ec,1551418243,100,-0.39,-78.55,57.2,5.82
ajaccio,90,fr,1551416400,76,41.93,8.74,53.6,5.82
healdsburg,1,us,1551418947,87,38.61,-122.87,48.2,6.2
vostok,56,ru,1551418446,48,46.45,135.83,28.66,5.64
tabou,24,ci,1551418688,96,4.42,-7.36,82.79,6.98
luba,8,gq,1551418951,52,17.32,120.7,84.55,5.64
serebryansk,48,kz,1551418951,79,49.68,83.3,34.19,2.84
auki,76,sb,1551418951,90,12.18,6.51,68.62,3.74
kamenka,88,ru,1551417470,90,53.19,44.05,32.0,8.1
strezhevoy,0,ru,1551416400,85,60.73,77.6,10.4,8.95
sao geraldo do araguaia,92,br,1551418951,100,-6.4,-48.55,70.91,4.18
tiruchchendur,0,in,1551418952,66,8.48,78.12,88.06,5.41
yenagoa,92,ng,1551418952,96,4.92,6.26,70.91,2.84
ketchikan,1,us,1551416160,80,55.34,-131.65,37.4,4.7
hakkari,0,tr,1551418927,78,61.34,23.75,12.99,5.82
hofn,92,is,1551418370,100,64.25,-15.21,39.64,9.33
tamworth,40,au,1551418247,20,-31.09,150.93,87.8,14.99
nanortalik,56,gl,1551418392,91,60.14,-45.24,32.89,28.57
shubarkuduk,80,kz,1551418953,93,49.15,56.49,29.47,13.91
saint george,0,bm,1551418405,77,39.45,22.34,41.0,6.93
faya,0,td,1551416400,72,18.39,42.45,64.4,17.22
naze,40,jp,1551412800,100,5.43,7.07,73.4,2.62
cockenzie,90,gb,1551418926,93,55.97,-2.97,43.0,4.7
homer,1,us,1551418444,74,59.64,-151.54,30.0,1.83
katsuura,20,jp,1551417139,44,33.93,134.5,57.2,13.87
berlevag,75,no,1551415800,67,70.86,29.09,21.2,16.11
oskarshamn,0,se,1551418203,86,57.26,16.44,28.99,3.36
rapar,0,in,1551418460,30,23.57,70.65,79.6,7.87
norman wells,5,ca,1551416400,69,65.28,-126.83,-7.61,6.93
sindor,0,ru,1551418954,63,62.87,51.9,-0.42,2.73
yerbogachen,68,ru,1551418468,69,61.28,108.01,20.74,3.74
kununurra,0,au,1551416400,37,-15.77,128.74,98.6,6.93
provideniya,90,ru,1551414600,86,64.42,-173.23,33.8,40.26
biak,12,id,1551418956,77,-0.91,122.88,86.17,3.96
poum,8,nc,1551418956,69,41.28,20.71,18.76,2.39
meulaboh,64,id,1551418359,100,4.14,96.13,81.04,4.63
skjervoy,90,no,1551417600,63,70.03,20.97,30.2,28.86
paamiut,32,gl,1551418957,73,61.99,-49.67,37.88,16.82
kupang,40,id,1551416400,70,-10.16,123.6,89.6,9.17
los llanos de aridane,24,es,1551416400,63,28.66,-17.92,64.4,8.05
nemuro,0,jp,1551416400,44,43.32,145.57,39.2,8.05
gushikawa,75,jp,1551418560,57,26.35,127.87,77.0,9.17
cap-haitien,0,ht,1551418730,95,19.76,-72.2,76.13,3.06
agadez,0,ne,1551416400,31,16.97,7.99,68.0,9.17
gigmoto,36,ph,1551418957,93,13.78,124.39,79.78,11.9
marienburg,75,sr,1551418517,100,52.12,9.98,50.0,3.36
evensk,0,ru,1551418419,100,61.92,159.24,0.44,3.51
marsh harbour,0,bs,1551418786,100,26.54,-77.06,73.3,4.85
dukat,0,ru,1551417655,78,42.44,22.31,28.0,2.62
talcahuano,90,cl,1551416400,93,-36.72,-73.12,57.2,2.24
key west,1,us,1551418705,84,47.93,-96.78,6.8,2.95
mendeleyevo,90,ru,1551418855,94,56.04,37.23,34.0,4.47
semnan,75,ir,1551416400,56,35.58,53.39,44.6,4.7
thompson,75,ca,1551416400,76,55.74,-97.86,-9.41,10.29
znamenskoye,48,ru,1551418959,92,57.13,73.82,11.83,9.78
kavaratti,0,in,1551418396,100,10.57,72.64,82.48,12.01
bubaque,0,gw,1551418360,99,11.28,-15.83,74.65,24.99
dakar,0,sn,1551416400,8,14.69,-17.45,73.4,17.22
matara,92,lk,1551418364,98,-13.74,-72.9,44.36,2.17
ancud,90,cl,1551416400,93,-41.87,-73.83,51.8,16.11
kristinehamn,40,se,1551418951,92,59.31,14.11,33.01,8.05
talara,76,pe,1551418960,79,-4.58,-81.27,75.64,4.63
preobrazheniye,64,ru,1551418697,36,42.9,133.91,37.79,7.2
guerrero negro,0,mx,1551418430,97,27.97,-114.04,55.75,7.43
tomohon,40,id,1551416400,55,1.33,124.84,91.4,8.05
mackenzie,90,ca,1551416400,53,55.34,-123.09,26.6,6.93
viedma,80,ar,1551418962,41,-40.81,-62.99,68.39,13.91
mount isa,20,au,1551416400,28,-20.73,139.49,93.2,10.29
high level,5,ca,1551416400,69,58.52,-117.13,-13.01,8.05
ust-ilimsk,48,ru,1551418962,66,57.96,102.73,31.09,4.52
moose factory,40,ca,1551416400,92,51.26,-80.61,12.2,8.05
bosaso,0,so,1551416400,78,11.28,49.18,77.0,3.29
mildura,0,au,1551418347,10,-34.18,142.16,100.99,10.29
ravar,8,ir,1551418963,31,31.27,56.81,62.41,8.77
saldanha,0,za,1551418449,76,41.42,-6.55,28.93,2.62
alanya,0,tr,1551415800,80,36.55,32.0,36.0,5.82
nantucket,1,us,1551418641,85,41.28,-70.1,17.6,5.82
myitkyina,0,mm,1551418445,68,25.38,97.4,73.12,4.18
gerash,90,ir,1551416400,93,27.67,54.14,53.6,9.17
picton,0,ca,1551418823,55,-41.29,174.01,66.0,9.17
nalut,32,ly,1551418964,88,31.86,10.98,37.16,3.18
shimoda,75,jp,1551418511,62,34.7,138.93,55.99,14.99
ilulissat,24,gl,1551415800,79,69.22,-51.1,24.8,1.61
oranjemund,12,na,1551418720,91,-28.55,16.43,62.86,22.19
salme,8,ee,1551418965,30,13.3,19.7,75.19,11.01
bara,88,sd,1551418965,79,10.41,10.6,71.59,6.76
thoen,0,th,1551418965,49,17.61,99.22,88.69,2.95
neuquen,24,ar,1551418805,22,-38.95,-68.06,70.28,19.39
skibotn,90,no,1551418432,63,69.39,20.27,30.2,28.86
kanniyakumari,0,in,1551418965,98,8.08,77.57,83.02,4.41
zakamensk,0,ru,1551418966,53,50.38,103.29,36.13,4.74
hovd,75,mn,1551418384,86,63.83,10.7,37.0,12.75
constantine,0,dz,1551416400,76,36.36,6.61,33.8,2.28
urubamba,75,pe,1551416400,81,-13.31,-72.12,48.2,2.24
carutapera,92,br,1551418464,99,-1.2,-46.02,74.02,2.84
kenai,1,us,1551418938,72,60.55,-151.26,21.99,4.7
goderich,64,sl,1551418704,89,43.74,-81.71,16.0,6.31
padang,20,id,1551416400,70,-0.92,100.36,86.0,2.24
portland,90,au,1551418435,74,45.52,-122.67,39.2,6.93
ust-koksa,0,ru,1551418967,64,50.27,85.62,27.94,2.62
almaznyy,75,ru,1551416400,93,48.03,40.04,37.4,20.13
caramay,0,ph,1551418967,85,10.18,119.24,83.78,13.47
general roca,24,ar,1551418865,22,-39.03,-67.58,70.28,19.39
srednekolymsk,32,ru,1551418700,65,67.46,153.71,-8.74,2.62
tautira,20,pf,1551418390,70,-17.73,-149.15,84.2,1.12
kaoma,0,zm,1551418967,83,-14.8,24.8,68.62,4.63
oistins,75,bb,1551416400,73,13.07,-59.53,77.0,18.34
esperance,20,au,1551418206,88,10.24,-61.45,73.4,7.43
zubtsov,92,ru,1551418968,95,56.17,34.59,30.91,14.36
verkhoturye,76,ru,1551418968,75,58.86,60.81,24.83,6.42
volchansk,76,ru,1551418968,76,59.94,60.08,22.13,5.08
rehoboth,0,na,1551418968,29,-23.31,17.08,63.31,6.53
bilma,76,ne,1551418434,32,18.69,12.92,62.23,11.68
shingu,20,jp,1551416400,62,33.72,135.99,55.4,17.22
lang suan,20,th,1551416400,55,9.95,99.07,91.4,9.17
namtsy,64,ru,1551416400,69,62.72,129.66,-9.41,2.24
limulunga,0,zm,1551418969,71,-15.13,23.15,71.54,7.43
ilhabela,92,br,1551418970,100,-23.78,-45.36,75.01,10.22
fortuna,0,us,1551418359,57,38.18,-1.13,51.01,5.82
arraial do cabo,80,br,1551418411,100,-22.97,-42.02,74.51,1.61
hambantota,40,lk,1551413400,79,6.12,81.12,86.0,8.05
grand gaube,40,mu,1551418739,74,-20.01,57.66,86.0,12.75
balkanabat,88,tm,1551418970,98,39.51,54.36,45.08,3.18
bacolod,0,ph,1551418237,53,10.68,122.95,86.03,12.68
aklavik,5,ca,1551416400,50,68.22,-135.01,5.0,9.17
leshukonskoye,80,ru,1551418389,86,64.9,45.76,13.13,5.41
south yuba city,1,us,1551418957,93,39.12,-121.64,52.0,4.7
richards bay,48,za,1551418304,94,-28.77,32.06,73.88,3.62
qasigiannguit,24,gl,1551415800,79,68.82,-51.19,24.8,1.61
det udom,0,th,1551416400,49,14.9,105.08,93.2,5.82
castro,90,cl,1551416400,93,-42.48,-73.76,51.8,16.11
chiusi,80,it,1551418937,81,43.02,11.95,48.0,1.12
bayog,68,ph,1551418971,60,7.85,123.04,87.16,8.99
mana,0,gf,1551418200,86,43.52,20.24,37.4,1.12
novikovo,44,ru,1551418972,99,45.05,34.56,40.18,14.92
bilibino,80,ru,1551418381,69,68.06,166.44,-6.67,3.18
kurilsk,20,ru,1551418973,92,45.23,147.88,31.0,5.97
tabuk,12,sa,1551418973,49,17.41,121.44,81.94,2.62
sofiyivka,0,ua,1551416400,74,48.05,33.87,35.6,15.66
moscow,90,us,1551418155,100,55.75,37.62,34.0,6.71
linxia,80,cn,1551418683,75,35.6,103.21,30.14,3.85
pacific grove,75,us,1551418969,76,36.62,-121.92,54.0,3.74
samarai,12,pg,1551418974,100,-10.62,150.67,82.61,9.22
omsukchan,36,ru,1551418974,63,62.53,155.8,-10.23,4.18
erzin,0,ru,1551418928,74,36.95,36.2,50.0,5.82
lebu,8,cl,1551418424,40,8.96,38.73,63.13,3.74
maun,0,bw,1551416400,77,-19.99,23.42,68.0,2.24
narbonne,0,fr,1551418926,62,43.18,3.0,54.0,10.29
latung,36,ph,1551418976,97,-8.45,120.42,78.43,1.39
sambava,68,mg,1551418463,100,-14.27,50.17,78.07,7.43
muroto,75,jp,1551416400,18,33.37,134.14,64.4,6.93
waipawa,0,nz,1551417257,56,-39.94,176.59,64.0,3.0
caravelas,92,br,1551418976,100,-17.73,-39.27,82.84,19.17
syedove,92,ua,1551418976,89,47.08,38.16,35.77,17.94
bakhmach,92,ua,1551418976,93,51.18,32.81,32.17,19.73
aquiraz,40,br,1551418136,83,-3.9,-38.39,81.0,3.36
jablanica,20,bg,1551418200,68,43.66,17.76,32.0,2.24
amapa,20,br,1551416400,83,15.09,-87.97,77.0,3.36
mecca,8,sa,1551418311,43,21.43,39.83,65.65,9.1
saint-augustin,75,ca,1551418389,87,44.83,-0.61,52.0,4.7
palauig,12,ph,1551418978,65,15.44,119.9,84.37,5.3
asenovgrad,44,bg,1551416400,37,42.01,24.88,50.0,13.87
erenhot,0,cn,1551418436,25,43.65,111.97,45.44,9.89
vila velha,40,br,1551418136,83,-3.71,-38.6,81.0,3.36
axim,32,gh,1551418978,100,4.87,-2.24,81.22,8.88
rapid valley,90,us,1551418923,100,44.06,-103.15,24.8,4.7
san quintin,8,mx,1551418354,52,17.54,120.52,84.55,5.64
suozhen,0,cn,1551418854,29,36.95,118.1,60.01,1.01
constitucion,0,mx,1551418391,51,23.99,-104.67,53.95,7.09
longkou,0,cn,1551418980,63,37.64,120.47,47.51,10.11
ostersund,0,se,1551417696,85,63.18,14.64,23.0,4.7
seymchan,68,ru,1551418980,64,62.93,152.39,-1.05,7.65
bialogard,32,pl,1551418857,93,54.01,15.99,32.0,2.84
qinhuangdao,44,cn,1551418980,30,39.94,119.59,59.03,5.08
sitka,76,us,1551418399,66,37.17,-99.65,27.13,8.43
mumford,88,gh,1551418981,93,5.26,-0.76,77.98,7.76
mazagao,75,br,1551416400,94,-0.12,-51.29,77.0,12.75
kruisfontein,56,za,1551418430,84,-34.0,24.73,68.39,7.76
elat,76,il,1551418981,96,2.91,11.16,67.04,1.95
gat,0,ly,1551416400,8,14.69,-16.54,73.4,17.22
baoro,44,cf,1551418982,75,5.69,15.95,70.42,2.95
waingapu,20,id,1551418704,99,-9.65,120.26,82.39,2.39
pindiga,88,ng,1551418982,79,9.98,10.93,71.59,6.76
zapolyarnyy,40,ru,1551417600,79,69.43,30.82,21.2,17.22
maningrida,56,au,1551418983,85,-12.05,134.23,86.89,13.02
kaa-khem,80,ru,1551418983,87,51.7,94.56,15.07,2.17
ahipara,24,nz,1551416965,74,-35.17,173.16,73.0,9.1
roald,75,no,1551418504,100,62.58,6.12,33.8,3.36
boston,24,gb,1551418958,41,42.36,-71.06,24.01,11.41
fukue,20,jp,1551418448,54,35.03,136.69,64.0,23.04
bastrop,90,us,1551418812,100,32.78,-91.91,51.8,5.75
mingguang,56,cn,1551418984,63,32.78,118.01,52.78,11.68
concarneau,90,fr,1551418877,76,47.88,-3.92,50.0,4.7
tortoli,5,it,1551416100,58,39.93,9.66,53.6,5.82
jalu,0,ly,1551418403,79,29.03,21.55,41.26,3.06
okha,12,ru,1551418702,85,53.59,142.95,16.64,10.0
kijang,0,id,1551416400,19,35.24,129.21,57.2,5.82
necochea,48,ar,1551418339,88,-38.55,-58.74,57.99,1.99
cap malheureux,40,mu,1551418739,74,-19.98,57.61,86.0,12.75
ust-kut,32,ru,1551418986,71,56.78,105.75,34.51,3.4
ayan,0,ru,1551418986,72,40.67,33.6,27.04,5.53
karasburg,0,na,1551418986,34,-28.01,18.75,65.02,5.19
yantal,36,ru,1551418726,72,56.85,105.25,34.42,3.4
sungairaya,32,id,1551418986,69,0.7,108.9,87.29,4.85
muscat,75,om,1551415800,36,23.6,58.55,80.6,5.41
eyl,92,so,1551418987,100,7.98,49.82,75.41,3.74
castelldefels,20,es,1551418986,76,41.29,1.98,52.0,3.36
angol,0,cl,1551418987,85,-37.8,-72.71,50.98,4.29
nouadhibou,0,mr,1551416400,42,20.93,-17.03,62.6,11.41
russell,0,nz,1551416400,53,-33.01,-68.8,71.6,4.97
severodvinsk,40,ru,1551416400,85,64.56,39.82,15.8,6.71
jiwani,68,pk,1551418988,69,25.05,61.74,76.72,17.94
malyye derbety,88,ru,1551418989,96,47.95,44.68,36.67,21.85
valley,92,us,1551418874,93,53.28,-4.56,48.2,5.82
banda aceh,88,id,1551418251,100,5.56,95.32,77.89,1.61
riom,20,fr,1551418925,57,45.89,3.11,50.0,9.17
morondava,64,mg,1551418420,100,-20.3,44.28,80.18,2.73
lasa,40,cn,1551416400,81,34.92,32.53,42.8,6.93
sao filipe,0,cv,1551418433,92,14.9,-24.5,70.69,19.39
along,88,in,1551418446,92,28.17,94.8,49.99,1.5
muzhi,64,ru,1551418990,82,65.4,64.7,2.96,3.85
bakchar,8,ru,1551418420,77,57.02,82.07,17.41,4.74
jacareacanga,92,br,1551418990,97,-6.22,-57.76,72.44,2.39
namibe,88,ao,1551418494,100,-15.19,12.15,77.17,3.74
verkhnevilyuysk,80,ru,1551418991,71,63.45,120.31,17.59,3.4
kamaishi,75,jp,1551416400,49,39.28,141.86,48.2,5.82
kedrovyy,92,ru,1551416400,63,56.17,91.82,30.2,3.4
turayf,0,sa,1551416400,100,31.68,38.65,35.6,13.87
xuddur,0,so,1551418991,45,4.12,43.89,78.29,9.1
palana,64,ru,1551418485,57,59.08,159.95,4.94,4.41
northam,92,au,1551418283,96,51.04,-4.21,48.99,1.99
skibbereen,75,ie,1551418200,100,51.55,-9.27,42.8,4.7
galesong,75,id,1551416400,74,-5.32,119.37,86.0,9.17
mareeba,32,au,1551418427,55,-16.99,145.42,86.0,17.22
caramoran,36,ph,1551418993,93,13.98,124.13,79.78,11.9
sibolga,64,id,1551418993,99,1.74,98.78,76.13,2.06
ponta do sol,64,cv,1551418394,94,-20.63,-46.0,65.56,2.28
nacala,56,mz,1551418993,94,-14.56,40.69,82.43,4.18
madimba,32,tz,1551418993,94,4.42,9.93,70.46,3.4
greenville,90,us,1551418826,100,34.85,-82.4,57.99,3.36
tadine,88,nc,1551418994,92,-21.55,167.88,80.77,23.76
chake chake,48,tz,1551418994,95,-5.25,39.77,83.56,4.97
damghan,48,ir,1551418434,95,36.17,54.34,42.11,2.73
zavallya,32,ua,1551418994,63,48.21,30.02,36.31,18.72
troitskoye,0,ru,1551418995,80,52.98,84.68,30.37,7.54
lima,0,py,1551418330,88,-12.06,-77.04,73.4,8.05
dzaoudzi,0,yt,1551416400,83,-12.79,45.27,82.4,2.24
caborca,0,mx,1551418818,52,30.58,-111.1,63.0,1.99
nioro,0,ml,1551418995,28,13.79,-15.05,62.54,14.25
sakaiminato,40,jp,1551416400,40,35.55,133.23,53.6,5.82
road town,20,vg,1551418414,78,18.42,-64.62,77.0,13.87
lubben,75,de,1551418930,86,51.95,13.9,43.0,5.82
arman,68,ru,1551418996,64,59.7,150.17,7.78,5.97
byron bay,75,au,1551418301,61,-28.65,153.62,80.6,12.75
corpus christi,90,us,1551418705,93,27.8,-97.4,52.0,18.34
dubna,92,ru,1551418997,95,56.76,37.14,29.65,8.43
yangjiang,12,cn,1551418788,77,21.85,111.96,73.99,10.45
verkhovazhye,80,ru,1551418997,85,60.75,42.05,13.09,14.03
victoria point,75,au,1551418993,57,-27.58,153.3,82.99,13.87
wajima,75,jp,1551416400,75,37.4,136.9,44.6,8.05
north bend,1,us,1551418830,100,43.41,-124.22,41.0,10.29
thinadhoo,0,mv,1551418424,100,0.53,72.93,82.43,12.35
harper,90,lr,1551418236,93,30.3,-99.24,48.0,6.87
jinka,48,et,1551418998,41,5.79,36.57,74.56,1.83
marawi,80,sd,1551418236,84,8.0,124.29,79.0,7.0
vengerovo,32,ru,1551418999,82,55.68,76.74,7.46,9.22
verkhnyaya inta,8,ru,1551418999,72,65.99,60.32,5.53,4.07
rumoi,75,jp,1551416400,64,43.93,141.67,37.4,2.24
ghauspur,0,pk,1551418999,72,28.14,69.08,69.29,10.67
daru,0,pg,1551419000,49,7.99,-10.85,62.41,3.74
sinnamary,80,gf,1551418256,100,5.38,-52.96,76.99,11.9
saint-leu,0,re,1551418818,66,-21.15,55.28,88.0,4.7
sherlovaya gora,0,ru,1551419000,32,50.53,116.31,42.61,8.77
cayenne,80,gf,1551416400,83,4.94,-52.33,75.2,4.7
pesaro,0,it,1551418997,80,43.91,12.91,52.0,3.36
general pico,0,ar,1551418479,59,-35.66,-63.75,68.39,15.26
totness,90,sr,1551418986,100,33.74,-80.8,59.0,7.87
cilegon,40,id,1551418993,66,-6.02,106.05,87.8,9.17
namatanai,48,pg,1551419001,100,-3.66,152.44,81.44,7.2
okato,20,nz,1551418590,40,-39.19,173.88,72.0,10.0
ovalle,0,cl,1551418483,97,-30.6,-71.2,58.31,2.73
porbandar,0,in,1551416400,30,21.64,69.61,82.4,9.17
dawei,0,mm,1551419002,43,14.07,98.19,90.89,2.95
lukovetskiy,40,ru,1551416400,85,64.29,41.92,15.8,6.71
roma,20,au,1551418864,87,41.89,12.48,52.0,6.93
storforshei,75,no,1551418812,85,66.4,14.52,28.99,4.7
